~VERSION INFORMATION
VERS.                          2.0 : CWLS LOG ASCII STANDARD -VERSION 2.0
WRAP.                          NO  : ONE LINE PER DEPTH STEP
~WELL INFORMATION
#MNEM.UNIT              DATA                       DESCRIPTION
#----- -----            ----------               -------------------------
STRT .FT                7500.0000                : START DEPTH
STOP .FT                8000.0000                : STOP DEPTH
STEP .FT                0.5000                   : STEP
NULL .                  -999.25                  : NULL VALUE
COMP .                  ANON OPERATOR LLC        : COMPANY
WELL .                  TEST WELL #1             : WELL
FLD  .                  WOLFCAMP                 : FIELD
LOC  .                  MIDLAND COUNTY, TX       : LOCATION
PROV .                  TEXAS                    : PROVINCE
CNTY .                  MIDLAND                  : COUNTY
STAT .                  TX                       : STATE
CTRY .                  US                       : COUNTRY
SRVC .                  ANON LOGGING CO          : SERVICE COMPANY
DATE .                  2024-06-15               : LOG DATE
UWI  .                  42-329-40042-00-00       : UNIQUE WELL ID
API  .                  42-329-40042             : API NUMBER
~CURVE INFORMATION
#MNEM.UNIT              API CODES                CURVE DESCRIPTION
#------------------     ------------             -------------------------
DEPT .FT                                         : 1  DEPTH
GR   .GAPI              45 310 01 00             : 2  GAMMA RAY
NPHI .V/V               42 890 00 00             : 3  NEUTRON POROSITY
RHOB .G/C3              45 350 02 00             : 4  BULK DENSITY
PEF  .B/E               45 360 01 00             : 5  PHOTOELECTRIC FACTOR
ILD  .OHMM               7 120 44 00             : 6  DEEP RESISTIVITY
~PARAMETER INFORMATION
#MNEM.UNIT              VALUE             DESCRIPTION
#------------------     --------          -------------------------
MUD  .                  OIL-BASE          : MUD TYPE
BHT  .DEGF              215.0             : BOTTOM HOLE TEMPERATURE
BS   .IN                8.75              : BIT SIZE
FD   .G/C3              0.85              : FLUID DENSITY
MATR .                  LIMESTONE         : NEUTRON MATRIX
MDEN .G/C3              2.71              : LOGGING MATRIX DENSITY
FDEN .G/C3              0.85              : FLUID DENSITY (OIL)
KB   .FT                3125.0            : KELLY BUSHING ELEVATION
~ASCII
7500.0000   118.3420    0.2650    2.3480    3.920    1.2300
7500.5000   122.8150    0.2720    2.3320    4.010    1.1850
7501.0000   115.6780    0.2590    2.3610    3.850    1.2780
7501.5000   124.9230    0.2780    2.3250    4.120    1.1420
7502.0000   119.4560    0.2640    2.3490    3.960    1.2150
7502.5000   121.1230    0.2710    2.3360    4.050    1.1980
7503.0000   116.8450    0.2580    2.3630    3.870    1.2640
7503.5000   125.6780    0.2800    2.3210    4.150    1.1250
7504.0000   113.2340    0.2550    2.3680    3.820    1.3020
7504.5000   120.5670    0.2680    2.3420    4.000    1.2230
7505.0000   123.4560    0.2740    2.3300    4.080    1.1720
7505.5000   117.8920    0.2600    2.3590    3.900    1.2540
7506.0000   121.3450    0.2700    2.3380    4.030    1.2050
7506.5000   119.7890    0.2660    2.3450    3.980    1.2180
7507.0000   116.2340    0.2570    2.3640    3.860    1.2790
7507.5000   124.1230    0.2760    2.3280    4.110    1.1530
7508.0000   118.6780    0.2630    2.3510    3.940    1.2320
7508.5000   122.3450    0.2720    2.3340    4.040    1.1880
7509.0000   115.9120    0.2580    2.3620    3.860    1.2690
7509.5000   120.1230    0.2670    2.3430    4.000    1.2150
7510.0000    72.3450    0.1920    2.5610    4.820    8.4500
7510.5000    68.5670    0.1850    2.5780    4.760    9.2300
7511.0000    65.2340    0.1800    2.5920    4.710    10.5600
7511.5000    61.8920    0.1740    2.6080    4.650    12.3400
7512.0000    58.4560    0.1680    2.6230    4.590    14.8900
7512.5000    55.1230    0.1620    2.6370    4.520    17.5600
7513.0000    52.3450    0.1570    2.6490    4.470    20.1200
7513.5000    49.6780    0.1510    2.6620    4.410    23.4500
7514.0000    47.2340    0.1460    2.6740    4.360    26.7800
7514.5000    45.1230    0.1420    2.6840    4.320    29.3400
7515.0000    43.4560    0.1390    2.6920    4.290    31.5600
7515.5000    42.3450    0.1370    2.6970    4.280    33.1200
7516.0000    41.7890    0.1360    2.6990    4.270    34.2800
7516.5000    41.2340    0.1350    2.7010    4.260    35.4500
7517.0000    40.8920    0.1340    2.7030    4.250    36.1200
7517.5000    40.5670    0.1340    2.7020    4.260    35.8900
7518.0000    41.1230    0.1350    2.7000    4.270    34.7800
7518.5000    41.9560    0.1360    2.6980    4.280    33.5600
7519.0000    42.8920    0.1380    2.6950    4.290    31.9400
7519.5000    44.3450    0.1410    2.6870    4.310    29.6700
7520.0000    46.7890    0.1450    2.6760    4.350    27.1200
7520.5000    49.4560    0.1500    2.6640    4.400    23.8900
7521.0000    52.6780    0.1560    2.6510    4.460    20.5600
7521.5000    56.2340    0.1630    2.6360    4.530    17.2300
7522.0000    60.1230    0.1700    2.6200    4.610    13.9400
7522.5000    64.3450    0.1780    2.6020    4.690    10.8900
7523.0000    68.9120    0.1860    2.5800    4.780    8.6700
7523.5000    73.2340    0.1940    2.5580    4.860    7.1200
7524.0000    77.8920    0.2020    2.5350    4.930    5.9800
7524.5000    82.3450    0.2120    2.5100    5.010    4.8900
7525.0000    87.1230    0.2220    2.4840    4.980    3.9200
7525.5000   108.4560    0.2490    2.3920    3.980    1.4500
7526.0000   113.6780    0.2540    2.3780    3.920    1.3800
7526.5000   117.2340    0.2590    2.3640    3.870    1.2950
7527.0000   120.8920    0.2640    2.3520    3.840    1.2340
7527.5000   115.4560    0.2570    2.3680    3.880    1.2780
7528.0000   112.3450    0.2520    2.3820    3.930    1.3450
7528.5000   118.7890    0.2610    2.3600    3.860    1.2620
7529.0000   121.4560    0.2660    2.3490    3.830    1.2180
7529.5000   116.8920    0.2580    2.3650    3.870    1.2890
7530.0000   113.2340    0.2530    2.3800    3.910    1.3360
7530.5000   119.6780    0.2620    2.3580    3.850    1.2530
7531.0000   122.3450    0.2680    2.3460    3.820    1.2060
7531.5000   117.9120    0.2600    2.3620    3.860    1.2700
7532.0000   114.5670    0.2550    2.3760    3.900    1.3140
7532.5000   120.1230    0.2640    2.3540    3.840    1.2290
7533.0000   123.4560    0.2700    2.3420    3.810    1.1890
7533.5000   118.6780    0.2610    2.3590    3.850    1.2560
7534.0000   115.3450    0.2560    2.3740    3.890    1.3020
7534.5000   121.7890    0.2660    2.3510    3.840    1.2230
7535.0000   116.4560    0.2580    2.3660    3.870    1.2840
7535.5000    58.3450    0.1760    2.5920    4.780    15.6700
7536.0000    52.6780    0.1680    2.6110    4.720    19.3400
7536.5000    48.4560    0.1620    2.6270    4.660    23.1200
7537.0000    44.1230    0.1560    2.6420    4.600    27.4500
7537.5000    40.8920    0.1500    2.6560    4.540    32.1200
7538.0000    37.6780    0.1440    2.6700    4.480    37.8900
7538.5000    35.4560    0.1390    2.6820    4.420    43.2300
7539.0000    33.2340    0.1350    2.6920    4.380    48.5600
7539.5000    31.8920    0.1320    2.6990    4.350    53.1200
7540.0000    30.5670    0.1300    2.7040    4.330    57.8900
7540.5000    29.9120    0.1290    2.7060    4.320    60.4500
7541.0000    29.4560    0.1280    2.7080    4.310    62.3400
7541.5000    29.1230    0.1280    2.7090    4.310    63.1200
7542.0000    28.9120    0.1270    2.7100    4.300    63.8900
7542.5000    28.7890    0.1270    2.7100    4.300    64.2300
7543.0000    28.9560    0.1280    2.7090    4.310    63.5600
7543.5000    29.3450    0.1280    2.7080    4.310    62.7800
7544.0000    29.8920    0.1290    2.7060    4.320    61.2300
7544.5000    30.6780    0.1300    2.7040    4.330    58.4500
7545.0000    31.9120    0.1320    2.6990    4.350    54.2300
7545.5000    33.4560    0.1350    2.6930    4.380    49.1200
7546.0000    35.6780    0.1390    2.6840    4.420    43.8900
7546.5000    38.3450    0.1440    2.6730    4.470    38.5600
7547.0000    41.6780    0.1500    2.6580    4.530    33.1200
7547.5000    45.2340    0.1560    2.6430    4.600    27.6700
7548.0000    49.4560    0.1630    2.6260    4.670    22.4500
7548.5000    54.1230    0.1710    2.6080    4.740    17.8900
7549.0000    59.3450    0.1790    2.5870    4.820    13.4500
7549.5000    64.8920    0.1880    2.5640    4.900    9.8900
7550.0000    70.4560    0.1970    2.5410    4.960    7.2300
7550.5000   102.3450    0.2430    2.4080    3.960    1.5600
7551.0000   108.6780    0.2490    2.3920    3.910    1.4350
7551.5000   114.2340    0.2540    2.3780    3.870    1.3460
7552.0000   118.9120    0.2600    2.3630    3.840    1.2780
7552.5000   113.4560    0.2540    2.3780    3.870    1.3430
7553.0000   109.8920    0.2500    2.3900    3.910    1.4020
7553.5000   116.3450    0.2570    2.3700    3.850    1.3020
7554.0000   120.1230    0.2630    2.3560    3.830    1.2430
7554.5000   115.6780    0.2570    2.3700    3.850    1.2950
7555.0000   112.2340    0.2520    2.3830    3.900    1.3540
7555.5000   118.7890    0.2600    2.3640    3.850    1.2720
7556.0000   121.4560    0.2650    2.3510    3.820    1.2230
7556.5000   116.9120    0.2580    2.3660    3.860    1.2870
7557.0000   113.5670    0.2540    2.3790    3.900    1.3370
7557.5000   119.1230    0.2610    2.3620    3.850    1.2590
7558.0000   122.3450    0.2670    2.3480    3.820    1.2120
7558.5000   117.7890    0.2590    2.3640    3.860    1.2750
7559.0000   114.3450    0.2550    2.3770    3.890    1.3200
7559.5000   120.6780    0.2640    2.3540    3.840    1.2340
7560.0000   115.4560    0.2570    2.3690    3.860    1.2880
7560.5000    78.3450    0.2050    2.5260    4.890    5.6700
7561.0000    72.6780    0.1970    2.5490    4.840    6.9800
7561.5000    66.4560    0.1880    2.5730    4.790    8.9400
7562.0000    61.2340    0.1800    2.5960    4.730    11.4500
7562.5000    56.8920    0.1720    2.6150    4.680    14.2300
7563.0000    53.4560    0.1660    2.6310    4.630    17.1200
7563.5000    50.1230    0.1600    2.6460    4.580    20.3400
7564.0000    47.6780    0.1550    2.6580    4.530    23.5600
7564.5000    45.4560    0.1510    2.6680    4.490    26.7800
7565.0000    43.8920    0.1480    2.6760    4.460    29.3400
7565.5000    42.6780    0.1460    2.6820    4.440    31.2300
7566.0000    41.9120    0.1450    2.6850    4.430    32.5600
