~VERSION INFORMATION
VERS.                          2.0 : CWLS LOG ASCII STANDARD -VERSION 2.0
WRAP.                          NO  : ONE LINE PER DEPTH STEP
~WELL INFORMATION
#MNEM.UNIT              DATA                       DESCRIPTION
#----- -----            ----------               -------------------------
STRT .FT                7500.0000                : START DEPTH
STOP .FT                8000.0000                : STOP DEPTH
STEP .FT                0.5000                   : STEP
NULL .                  -999.25                  : NULL VALUE
COMP .                  ANON OPERATOR LLC        : COMPANY
WELL .                  TEST WELL #1             : WELL
FLD  .                  WOLFCAMP                 : FIELD
LOC  .                  MIDLAND COUNTY, TX       : LOCATION
PROV .                  TEXAS                    : PROVINCE
CNTY .                  MIDLAND                  : COUNTY
STAT .                  TX                       : STATE
CTRY .                  US                       : COUNTRY
SRVC .                  ANON LOGGING CO          : SERVICE COMPANY
DATE .                  2024-06-15               : LOG DATE
UWI  .                  42-329-40042-00-00       : UNIQUE WELL ID
API  .                  42-329-40042             : API NUMBER
~CURVE INFORMATION
#MNEM.UNIT              API CODES                CURVE DESCRIPTION
#------------------     ------------             -------------------------
DEPT .FT                                         : 1  DEPTH
GR   .GAPI              45 310 01 00             : 2  GAMMA RAY
NPHI .V/V               42 890 00 00             : 3  NEUTRON POROSITY
RHOB .G/C3              45 350 02 00             : 4  BULK DENSITY
PEF  .B/E               45 360 01 00             : 5  PHOTOELECTRIC FACTOR
ILD  .OHMM               7 120 44 00             : 6  DEEP RESISTIVITY
~PARAMETER INFORMATION
#MNEM.UNIT              VALUE             DESCRIPTION
#------------------     --------          -------------------------
MUD  .                  OIL-BASE          : MUD TYPE
BHT  .DEGF              215.0             : BOTTOM HOLE TEMPERATURE
BS   .IN                8.75              : BIT SIZE
FD   .G/C3              0.85              : FLUID DENSITY
MATR .                  LIMESTONE         : NEUTRON MATRIX
MDEN .G/C3              2.71              : LOGGING MATRIX DENSITY
FDEN .G/C3              0.85              : FLUID DENSITY (OIL)
KB   .FT                3125.0            : KELLY BUSHING ELEVATION
~ASCII
# ...
7566.5000    41.3450    0.1440    2.6870    4.420    33.4500
7567.0000    40.8920    0.1440    2.6880    4.420    33.8900
7567.5000    41.2340    0.1450    2.6870    4.430    33.2300
7568.0000    42.1230    0.1460    2.6840    4.440    31.7800
7568.5000    43.4560    0.1480    2.6770    4.460    29.5600
7569.0000    45.3450    0.1510    2.6690    4.500    26.3400
7569.5000    47.8920    0.1550    2.6600    4.540    23.1200
7570.0000    50.6780    0.1600    2.6470    4.580    20.2300
7570.5000    86.3450    0.2180    2.4950    4.010    2.8900
7571.0000    92.6780    0.2260    2.4720    3.970    2.5600
7571.5000    98.4560    0.2340    2.4490    3.940    2.1800
7572.0000   104.1230    0.2410    2.4270    3.910    1.8900
7572.5000   109.6780    0.2480    2.4040    3.880    1.6700
7573.0000   114.3450    0.2540    2.3840    3.850    1.4800
7573.5000   118.2340    0.2600    2.3660    3.830    1.3500
7574.0000   120.6780    0.2640    2.3540    3.820    1.2780
7574.5000   117.8920    0.2600    2.3650    3.840    1.3090
7575.0000   113.4560    0.2540    2.3810    3.870    1.3840
7575.5000    81.2340    0.2100    2.5160    4.860    4.9200
7576.0000    75.6780    0.2010    2.5380    4.820    6.3400
7576.5000    69.3450    0.1920    2.5620    4.770    8.2300
7577.0000    63.8920    0.1840    2.5840    4.720    10.6700
7577.5000    58.4560    0.1760    2.6040    4.670    13.5600
7578.0000    54.1230    0.1700    2.6190    4.630    16.4500
7578.5000    50.6780    0.1640    2.6330    4.580    19.7800
7579.0000    47.8920    0.1590    2.6450    4.540    22.9400
7579.5000    45.4560    0.1550    2.6550    4.510    25.8900
7580.0000    43.6780    0.1520    2.6630    4.480    28.1200
7580.5000    42.3450    0.1500    2.6690    4.460    29.8900
7581.0000    41.4560    0.1490    2.6720    4.450    31.0200
7581.5000    40.8920    0.1480    2.6740    4.440    31.8900
7582.0000    40.4560    0.1470    2.6760    4.440    32.3400
7582.5000    40.1230    0.1470    2.6760    4.440    32.5600
7583.0000    40.3450    0.1470    2.6760    4.440    32.4500
7583.5000    40.7890    0.1480    2.6750    4.450    31.9800
7584.0000    41.5670    0.1490    2.6720    4.460    30.8900
7584.5000    42.6780    0.1500    2.6690    4.460    29.4500
7585.0000    44.2340    0.1520    2.6640    4.480    27.5600
7585.5000    46.3450    0.1550    2.6560    4.510    24.9200
7586.0000    49.1230    0.1590    2.6460    4.540    22.1200
7586.5000    52.3450    0.1640    2.6330    4.580    19.1200
7587.0000    56.1230    0.1700    2.6180    4.630    16.0800
7587.5000    60.4560    0.1770    2.5990    4.680    12.9800
7588.0000    65.2340    0.1850    2.5770    4.740    10.1200
7588.5000    70.4560    0.1940    2.5530    4.800    7.8900
7589.0000    75.8920    0.2030    2.5290    4.860    6.2300
7589.5000    80.6780    0.2110    2.5060    4.900    5.0400
7590.0000    86.3450    0.2210    2.4800    4.940    3.9200
7590.5000   104.3450    0.2420    2.4230    3.910    1.8200
7591.0000   110.6780    0.2490    2.4020    3.880    1.6500
7591.5000   116.2340    0.2560    2.3810    3.850    1.4800
7592.0000   120.8920    0.2620    2.3630    3.830    1.3600
7592.5000   115.4560    0.2560    2.3800    3.860    1.4200
7593.0000   112.1230    0.2520    2.3910    3.890    1.4890
7593.5000   118.6780    0.2590    2.3710    3.850    1.3670
7594.0000   121.4560    0.2650    2.3560    3.820    1.3090
7594.5000   116.8920    0.2580    2.3720    3.860    1.3780
7595.0000   113.3450    0.2540    2.3840    3.890    1.4360
7595.5000   119.7890    0.2610    2.3650    3.850    1.3430
7596.0000   122.3450    0.2670    2.3510    3.820    1.2960
7596.5000   117.6780    0.2590    2.3680    3.860    1.3560
7597.0000   114.2340    0.2550    2.3800    3.890    1.4120
7597.5000   120.5670    0.2640    2.3590    3.850    1.3230
7598.0000   123.1230    0.2700    2.3450    3.820    1.2750
7598.5000   118.4560    0.2610    2.3630    3.850    1.3490
7599.0000   115.1230    0.2560    2.3770    3.880    1.4050
7599.5000   121.4560    0.2650    2.3550    3.850    1.3180
7600.0000   116.8920    0.2580    2.3710    3.870    1.3720
7600.5000    62.3450    0.1820    2.5920    4.730    12.3400
7601.0000    57.6780    0.1740    2.6110    4.670    15.6700
7601.5000    53.4560    0.1670    2.6280    4.620    19.2300
7602.0000    49.8920    0.1620    2.6420    4.570    22.8900
7602.5000    46.7890    0.1570    2.6540    4.530    26.5600
7603.0000    44.2340    0.1530    2.6640    4.490    29.8900
7603.5000    42.1230    0.1500    2.6720    4.460    32.6700
7604.0000    40.6780    0.1480    2.6780    4.440    34.8900
7604.5000    39.4560    0.1460    2.6830    4.430    36.7800
7605.0000    38.8920    0.1450    2.6850    4.420    37.8900
7605.5000    38.4560    0.1440    2.6860    4.420    38.5600
7606.0000    38.2340    0.1440    2.6870    4.410    38.9800
7606.5000    38.1230    0.1440    2.6870    4.410    39.1200
7607.0000    38.2890    0.1440    2.6870    4.420    38.8900
7607.5000    38.5670    0.1450    2.6860    4.420    38.2300
7608.0000    39.1230    0.1450    2.6850    4.420    37.2300
7608.5000    39.8920    0.1460    2.6830    4.430    35.8900
7609.0000    40.9120    0.1480    2.6790    4.440    34.1200
7609.5000    42.3450    0.1500    2.6730    4.460    32.0800
7610.0000    44.1230    0.1530    2.6650    4.490    29.5600
7610.5000    46.5670    0.1570    2.6550    4.530    26.4500
7611.0000    49.4560    0.1620    2.6430    4.570    22.9800
7611.5000    52.8920    0.1670    2.6300    4.620    19.6700
7612.0000    56.7890    0.1740    2.6120    4.670    15.8900
7612.5000    61.2340    0.1820    2.5920    4.730    12.2300
7613.0000    66.1230    0.1900    2.5690    4.790    9.3400
7613.5000    71.3450    0.1990    2.5450    4.850    7.1200
7614.0000    77.2340    0.2080    2.5190    4.910    5.4500
7614.5000    83.4560    0.2170    2.4920    4.960    4.2300
7615.0000    89.6780    0.2260    2.4640    5.000    3.3400
7615.5000   105.6780    0.2440    2.4150    3.900    1.7800
7616.0000   111.3450    0.2510    2.3960    3.870    1.6100
7616.5000   117.8920    0.2590    2.3740    3.840    1.4200
7617.0000   122.4560    0.2650    2.3570    3.820    1.3050
7617.5000   118.1230    0.2600    2.3710    3.850    1.3700
7618.0000   114.6780    0.2560    2.3830    3.880    1.4280
7618.5000   120.3450    0.2630    2.3620    3.850    1.3160
7619.0000   123.1230    0.2690    2.3470    3.820    1.2690
7619.5000   118.6780    0.2610    2.3650    3.850    1.3450
7620.0000   115.2340    0.2560    2.3790    3.880    1.4120
7620.5000   121.4560    0.2650    2.3560    3.850    1.3020
7621.0000   124.2340    0.2720    2.3380    3.810    1.2430
7621.5000   119.7890    0.2640    2.3570    3.850    1.3090
7622.0000   116.3450    0.2590    2.3710    3.880    1.3790
7622.5000   122.6780    0.2680    2.3510    3.840    1.2680
7623.0000   118.3450    0.2610    2.3650    3.860    1.3280
7623.5000   113.9120    0.2550    2.3810    3.890    1.4050
7624.0000   120.5670    0.2640    2.3600    3.850    1.3060
7624.5000   123.8920    0.2710    2.3420    3.820    1.2560
7625.0000   117.4560    0.2590    2.3690    3.860    1.3480
7625.5000    55.3450    0.1690    2.6230    4.640    18.4500
7626.0000    50.6780    0.1620    2.6400    4.580    22.6700
7626.5000    46.4560    0.1560    2.6560    4.520    27.2300
7627.0000    42.8920    0.1510    2.6680    4.470    31.8900
7627.5000    39.6780    0.1460    2.6790    4.430    36.5600
7628.0000    37.3450    0.1420    2.6880    4.400    40.8900
7628.5000    35.4560    0.1390    2.6950    4.370    44.7800
7629.0000    33.8920    0.1360    2.7010    4.350    48.2300
7629.5000    32.6780    0.1340    2.7050    4.340    51.3400
7630.0000    31.8920    0.1330    2.7070    4.330    53.6700
7630.5000    31.2340    0.1320    2.7090    4.320    55.4500
7631.0000    30.7890    0.1310    2.7100    4.320    56.8900
7631.5000    30.4560    0.1310    2.7100    4.320    57.7800
7632.0000    30.2340    0.1310    2.7100    4.320    58.2300
7632.5000    30.1230    0.1300    2.7110    4.310    58.6700
