~VERSION INFORMATION
VERS.                          2.0 : CWLS LOG ASCII STANDARD -VERSION 2.0
WRAP.                          NO  : ONE LINE PER DEPTH STEP
~WELL INFORMATION
#MNEM.UNIT              DATA                       DESCRIPTION
#----- -----            ----------               -------------------------
STRT .FT                7500.0000                : START DEPTH
STOP .FT                8000.0000                : STOP DEPTH
STEP .FT                0.5000                   : STEP
NULL .                  -999.25                  : NULL VALUE
COMP .                  ANON OPERATOR LLC        : COMPANY
WELL .                  TEST WELL #1             : WELL
FLD  .                  WOLFCAMP                 : FIELD
LOC  .                  MIDLAND COUNTY, TX       : LOCATION
PROV .                  TEXAS                    : PROVINCE
CNTY .                  MIDLAND                  : COUNTY
STAT .                  TX                       : STATE
CTRY .                  US                       : COUNTRY
SRVC .                  ANON LOGGING CO          : SERVICE COMPANY
DATE .                  2024-06-15               : LOG DATE
UWI  .                  42-329-40042-00-00       : UNIQUE WELL ID
API  .                  42-329-40042             : API NUMBER
~CURVE INFORMATION
#MNEM.UNIT              API CODES                CURVE DESCRIPTION
#------------------     ------------             -------------------------
DEPT .FT                                         : 1  DEPTH
GR   .GAPI              45 310 01 00             : 2  GAMMA RAY
NPHI .V/V               42 890 00 00             : 3  NEUTRON POROSITY
RHOB .G/C3              45 350 02 00             : 4  BULK DENSITY
PEF  .B/E               45 360 01 00             : 5  PHOTOELECTRIC FACTOR
ILD  .OHMM               7 120 44 00             : 6  DEEP RESISTIVITY
~PARAMETER INFORMATION
#MNEM.UNIT              VALUE             DESCRIPTION
#------------------     --------          -------------------------
MUD  .                  OIL-BASE          : MUD TYPE
BHT  .DEGF              215.0             : BOTTOM HOLE TEMPERATURE
BS   .IN                8.75              : BIT SIZE
FD   .G/C3              0.85              : FLUID DENSITY
MATR .                  LIMESTONE         : NEUTRON MATRIX
MDEN .G/C3              2.71              : LOGGING MATRIX DENSITY
FDEN .G/C3              0.85              : FLUID DENSITY (OIL)
KB   .FT                3125.0            : KELLY BUSHING ELEVATION
~ASCII
# ...
7633.0000    30.2890    0.1310    2.7100    4.320    58.1200
7633.5000    30.6780    0.1310    2.7100    4.320    57.2300
7634.0000    31.2340    0.1320    2.7090    4.320    55.7800
7634.5000    32.1230    0.1330    2.7060    4.330    53.4500
7635.0000    33.4560    0.1360    2.7010    4.350    50.2300
7635.5000    35.1230    0.1390    2.6950    4.380    46.5600
7636.0000    37.2340    0.1420    2.6880    4.400    42.3400
7636.5000    39.8920    0.1460    2.6790    4.430    37.4500
7637.0000    42.9120    0.1510    2.6680    4.470    32.1200
7637.5000    46.3450    0.1560    2.6560    4.520    27.0800
7638.0000    50.2340    0.1630    2.6380    4.580    22.1200
7638.5000    54.6780    0.1700    2.6190    4.640    17.8900
7639.0000    59.4560    0.1780    2.5980    4.700    14.0800
7639.5000    64.8920    0.1870    2.5740    4.770    10.6700
7640.0000    70.6780    0.1960    2.5480    4.840    7.8900
7640.5000    98.4560    0.2330    2.4460    3.920    2.3400
7641.0000   105.6780    0.2420    2.4200    3.890    1.9800
7641.5000   112.3450    0.2510    2.3960    3.860    1.6700
7642.0000   118.6780    0.2590    2.3730    3.830    1.4200
7642.5000   113.2340    0.2530    2.3900    3.860    1.4890
7643.0000   109.4560    0.2490    2.4020    3.890    1.5780
7643.5000   116.1230    0.2570    2.3790    3.850    1.3980
7644.0000   120.3450    0.2640    2.3600    3.820    1.3120
7644.5000   115.7890    0.2570    2.3780    3.860    1.3820
7645.0000   112.4560    0.2530    2.3890    3.890    1.4560
7645.5000    66.3450    0.1890    2.5700    4.790    9.1200
7646.0000    60.6780    0.1810    2.5940    4.730    11.8900
7646.5000    55.4560    0.1730    2.6140    4.670    15.0200
7647.0000    51.2340    0.1660    2.6310    4.620    18.5600
7647.5000    47.6780    0.1610    2.6440    4.580    22.3400
7648.0000    44.4560    0.1560    2.6560    4.530    25.8900
7648.5000    41.8920    0.1520    2.6650    4.500    29.1200
7649.0000    39.6780    0.1490    2.6730    4.470    32.0800
7649.5000    38.1230    0.1470    2.6780    4.450    34.3400
7650.0000    36.9120    0.1450    2.6820    4.440    36.2300
7650.5000    36.1230    0.1440    2.6850    4.430    37.5600
7651.0000    35.6780    0.1440    2.6860    4.420    38.2300
7651.5000    35.3450    0.1430    2.6870    4.420    38.6700
7652.0000    35.1230    0.1430    2.6880    4.420    38.9800
7652.5000    35.0120    0.1430    2.6880    4.420    39.1200
7653.0000    35.1890    0.1430    2.6870    4.420    38.8900
7653.5000    35.5670    0.1440    2.6860    4.430    38.2300
7654.0000    36.1230    0.1440    2.6850    4.430    37.3400
7654.5000    37.0120    0.1450    2.6820    4.440    35.8900
7655.0000    38.2340    0.1470    2.6780    4.450    34.0200
7655.5000    39.8920    0.1490    2.6730    4.470    31.7800
7656.0000    41.8920    0.1520    2.6660    4.500    29.0800
7656.5000    44.3450    0.1560    2.6580    4.530    26.1200
7657.0000    47.2340    0.1600    2.6470    4.570    22.8900
7657.5000    50.6780    0.1650    2.6340    4.610    19.7800
7658.0000    54.3450    0.1710    2.6180    4.660    16.6700
7658.5000    58.6780    0.1780    2.5980    4.710    13.5600
7659.0000    63.4560    0.1860    2.5760    4.770    10.6700
7659.5000    68.6780    0.1950    2.5520    4.830    8.2300
7660.0000    74.2340    0.2050    2.5260    4.890    6.2300
7660.5000   100.4560    0.2380    2.4370    3.900    2.1200
7661.0000   108.3450    0.2460    2.4120    3.870    1.7800
7661.5000   115.6780    0.2540    2.3880    3.840    1.4900
7662.0000   120.4560    0.2620    2.3660    3.820    1.3200
7662.5000   116.1230    0.2560    2.3810    3.850    1.3870
7663.0000   112.6780    0.2520    2.3930    3.880    1.4620
7663.5000   119.3450    0.2610    2.3700    3.850    1.3280
7664.0000   122.8920    0.2680    2.3530    3.820    1.2710
7664.5000   118.4560    0.2610    2.3690    3.850    1.3320
7665.0000   114.9120    0.2560    2.3820    3.880    1.4060
7665.5000    82.3450    0.2130    2.5060    4.890    4.6700
7666.0000    76.6780    0.2040    2.5290    4.840    5.9800
7666.5000    70.4560    0.1950    2.5530    4.790    7.7800
7667.0000    64.8920    0.1870    2.5760    4.740    10.1200
7667.5000    59.4560    0.1790    2.5970    4.690    12.8900
7668.0000    54.6780    0.1720    2.6160    4.640    16.0200
7668.5000    50.4560    0.1660    2.6320    4.600    19.4500
7669.0000    46.8920    0.1610    2.6450    4.560    22.8900
7669.5000    43.8920    0.1570    2.6560    4.530    25.9200
7670.0000    41.4560    0.1530    2.6650    4.500    28.6700
7670.5000    39.6780    0.1500    2.6720    4.480    30.8900
7671.0000    38.3450    0.1480    2.6770    4.460    32.4500
7671.5000    37.4560    0.1470    2.6800    4.450    33.5600
7672.0000    36.8920    0.1460    2.6820    4.440    34.2300
7672.5000    36.5670    0.1460    2.6830    4.440    34.6700
7673.0000    36.4560    0.1460    2.6830    4.440    34.8900
7673.5000    36.6780    0.1460    2.6820    4.440    34.5600
7674.0000    37.1230    0.1470    2.6800    4.450    33.8900
7674.5000    37.8920    0.1480    2.6770    4.460    32.8900
7675.0000    38.9120    0.1490    2.6740    4.470    31.5600
7675.5000    40.3450    0.1500    2.6700    4.480    29.8900
7676.0000    42.1230    0.1530    2.6650    4.500    27.8900
7676.5000    44.4560    0.1560    2.6570    4.530    25.5600
7677.0000    47.2340    0.1600    2.6470    4.570    22.7800
7677.5000    50.6780    0.1650    2.6350    4.610    19.7800
7678.0000    54.6780    0.1710    2.6180    4.660    16.5600
7678.5000    59.2340    0.1790    2.5960    4.710    13.2300
7679.0000    64.4560    0.1870    2.5730    4.770    10.2300
7679.5000    70.1230    0.1960    2.5490    4.830    7.8900
7680.0000    76.3450    0.2060    2.5220    4.900    5.9200
7680.5000   103.6780    0.2410    2.4290    3.890    1.9800
7681.0000   110.3450    0.2490    2.4040    3.860    1.7100
7681.5000   117.2340    0.2570    2.3790    3.840    1.4500
7682.0000   121.8920    0.2640    2.3590    3.810    1.3020
7682.5000   117.4560    0.2580    2.3750    3.850    1.3650
7683.0000   113.9120    0.2530    2.3880    3.880    1.4320
7683.5000   120.5670    0.2630    2.3650    3.850    1.3020
7684.0000   123.4560    0.2700    2.3450    3.820    1.2490
7684.5000   119.1230    0.2620    2.3640    3.850    1.3090
7685.0000   115.6780    0.2570    2.3780    3.880    1.3780
7685.5000   112.3450    0.2530    2.3900    3.900    1.4450
7686.0000   118.9120    0.2610    2.3680    3.860    1.3200
7686.5000   122.6780    0.2680    2.3500    3.820    1.2620
7687.0000   118.3450    0.2610    2.3660    3.860    1.3280
7687.5000   114.8920    0.2560    2.3800    3.890    1.4020
7688.0000   121.5670    0.2650    2.3570    3.850    1.3000
7688.5000   124.3450    0.2720    2.3380    3.820    1.2390
7689.0000   119.8920    0.2640    2.3570    3.850    1.3060
7689.5000   116.4560    0.2590    2.3710    3.880    1.3750
7690.0000   122.1230    0.2660    2.3530    3.850    1.2970
7690.5000   118.6780    0.2610    2.3670    3.860    1.3290
7691.0000   115.2340    0.2560    2.3810    3.890    1.4050
7691.5000   121.8920    0.2650    2.3580    3.850    1.3000
7692.0000   124.6780    0.2730    2.3350    3.820    1.2310
7692.5000   120.2340    0.2650    2.3560    3.850    1.3010
7693.0000   116.7890    0.2590    2.3720    3.880    1.3700
7693.5000   113.3450    0.2540    2.3850    3.900    1.4390
7694.0000   119.6780    0.2620    2.3640    3.860    1.3200
7694.5000   122.4560    0.2690    2.3460    3.820    1.2580
7695.0000   118.1230    0.2610    2.3640    3.860    1.3350
7695.5000   114.7890    0.2560    2.3790    3.880    1.4080
7696.0000   121.3450    0.2650    2.3570    3.850    1.3070
7696.5000   124.1230    0.2720    2.3390    3.820    1.2450
7697.0000   119.6780    0.2640    2.3570    3.850    1.3080
7697.5000   116.2340    0.2590    2.3720    3.880    1.3740
7698.0000   122.8920    0.2680    2.3520    3.840    1.2870
7698.5000   119.4560    0.2620    2.3650    3.860    1.3240
7699.0000   115.9120    0.2570    2.3790    3.890    1.4010
